osm_id,code,fclass,name,point_x,point_y,lon,lat
357278499,2082,school,Broadway School,-76.2082651000,41.2528601000,-76.20827,41.25286
357282393,2082,school,Crossroads School,-76.1252079000,41.0448063000,-76.12521,41.04481
357282646,2082,school,Dallas High School,-75.9624214000,41.3464687000,-75.96242,41.34647
357288725,2082,school,Greenwood School,-75.9957574000,41.1014717000,-75.99576,41.10147
357289669,2082,school,Harter School,-76.1963220000,41.0228627000,-76.19632,41.02286
357290861,2082,school,Hillside School,-75.9604767000,41.2973030000,-75.96048,41.2973
357293895,2082,school,Kinsey School,-76.0974288000,41.0548060000,-76.09743,41.05481
357294117,2082,school,Kresgeville School,-75.7701929000,41.2528591000,-75.77019,41.25286
357294700,2082,school,Laurel School,-75.8438065000,41.2164709000,-75.84381,41.21647
357297141,2082,school,McKendree School,-76.1782641000,41.1992496000,-76.17826,41.19925
357297330,2082,school,G.A.R. Memorial High School,-75.8826621000,41.2341335000,-75.88266,41.23413
357297337,2082,school,Memorial High School,-75.7996384000,41.3073026000,-75.79964,41.3073
357297561,2082,school,E. L. Meyers High School,-75.9085302000,41.2392686000,-75.90853,41.23927
357298148,2081,university,Misercordia University,-75.9725878000,41.3457119000,-75.97259,41.34571
357299109,2082,school,Mott School,-76.1261933000,41.2932272000,-76.12619,41.29323
357300891,2082,school,Mountain School,-75.9710345000,41.0775831000,-75.97103,41.07758
357300895,2082,school,Mountain School,-75.9574210000,41.2756368000,-75.95742,41.27564
357300901,2082,school,Mountain School,-75.8763077000,41.3617462000,-75.87631,41.36175
357302541,2082,school,Oakdale School,-76.1251470000,41.2552318000,-76.12515,41.25523
357302863,2082,school,Oliver School,-75.7999161000,41.2203597000,-75.79992,41.22036
357303248,2082,school,Henry W. Palmer School (closed),-75.9008006000,41.2277420000,-75.9008,41.22774
357304538,2082,school,Pleasant Valley School,-76.2349330000,41.2481381000,-76.23493,41.24814
357304988,2082,school,Port Griffith School,-75.8093609000,41.3114692000,-75.80936,41.31147
357305792,2082,school,Retreat School,-76.1865976000,41.3111918000,-76.1866,41.31119
357305800,2082,school,Reyburn School,-76.1463184000,41.1917495000,-76.14632,41.19175
357306144,2082,school,Rock School,-76.1163165000,41.2553598000,-76.11632,41.25536
357306246,2082,school,Rohme School,-75.9746437000,41.2803590000,-75.97464,41.28036
357306339,2082,school,Roosevelt School,-75.7179693000,41.3011919000,-75.71797,41.30119
357306409,2082,school,Ross Center School,-76.1702078000,41.2586932000,-76.17021,41.25869
357311460,2082,school,Santee School,-76.0915930000,41.2567486000,-76.09159,41.25675
357315477,2082,school,Sugarloaf School,-76.0832079000,40.9992871000,-76.08321,40.99929
357315676,2082,school,Sunshine School,-76.2077102000,41.1659166000,-76.20771,41.16592
357319274,2082,school,Waterton School,-76.2327113000,41.1584169000,-76.23271,41.15842
357319474,2082,school,Welch Hill School,-75.9396426000,41.2536927000,-75.93964,41.25369
357321036,2082,school,Wyoming Seminary,-75.8976969000,41.2636925000,-75.8977,41.26369
357322513,2082,school,Ripple School,-75.7804712000,41.0411957000,-75.78047,41.0412
357323203,2082,school,Van Horn School,-76.1268726000,41.2300824000,-76.12687,41.23008
357335106,2082,school,Exeter Township School,-75.8479735000,41.3873012000,-75.84797,41.3873
357335161,2082,school,Forest Grove School,-75.8865859000,41.4011898000,-75.88659,41.40119
357335452,2082,school,Michigan School,-75.9271427000,41.3948011000,-75.92714,41.3948
357349735,2082,school,Cotton Avenue Elementary School,-75.8318615000,41.2775810000,-75.83186,41.27758
357349739,2082,school,Plains Junior High School,-75.8526956000,41.2759144000,-75.8527,41.27591
357349743,2082,school,Maffett Street School,-75.8554733000,41.2711922000,-75.85547,41.27119
357349747,2082,school,Daniel J Flood Elementary School,-75.8643625000,41.2564703000,-75.86436,41.25647
357349752,2082,school,Macklin Elementary School,-75.8650136000,41.2455376000,-75.86501,41.24554
357351104,2082,school,James M Coughlin Junior Senior High School,-75.8790851000,41.2461927000,-75.87909,41.24619
357351110,2082,school,Doctor David W Kistler Elementary School,-75.9108807000,41.2402442000,-75.91088,41.24024
357365646,2082,school,Dodson Elementary School,-75.8935302000,41.2320262000,-75.89353,41.23203
357367803,2082,school,Lieutenant Duddy Elementary School,-75.8443619000,41.2856365000,-75.84436,41.28564
357370822,2082,school,McGowan Business School,-75.8805556000,41.2497222000,-75.88056,41.24972
367961582,2014,arts_centre,Dorothy Dickson Darte Center for the Performing Arts,-75.8911111000,41.2450000000,-75.89111,41.245
983949648,2082,school,Montgomery Avenue Elementary,-75.7986142000,41.3273102000,-75.79861,41.32731
983949650,2082,school,Wyoming Area Secondary Center,-75.8102614000,41.3222910000,-75.81026,41.32229
1361562645,2501,supermarket,Price Chopper,-75.8519402000,41.3001165000,-75.85194,41.30012
1694963020,2303,cafe,Curry Donut,-75.8847410000,41.2402787000,-75.88474,41.24028
1729717714,2082,school,Apple Tree Nursery,-75.8649582000,41.2955478000,-75.86496,41.29555
1731103246,2082,school,Wyoming Valley Children's Association,-75.8753748000,41.2817883000,-75.87537,41.28179
1731122813,2082,school,MMR Jr Prep,-75.8784961000,41.2788290000,-75.8785,41.27883
2714976134,2402,motel,Residence Inn,-76.0272855000,40.9395316000,-76.02729,40.93953
2970523875,2303,cafe,Donut Connection,-75.8236873000,41.3178058000,-75.82369,41.31781
2970523889,2501,supermarket,Gerritys,-75.8062253000,41.3247019000,-75.80623,41.3247
2970524474,2501,supermarket,Modern Market,-75.8172545000,41.3211377000,-75.81725,41.32114
2970885760,2013,nursing_home,Wyoming Manor,-75.8320187000,41.3151640000,-75.83202,41.31516
2973133321,2082,school,Child Care Preschool,-75.8365948000,41.3124567000,-75.83659,41.31246
2973133565,2082,school,Sunshine Learning Center,-75.8220438000,41.3192377000,-75.82204,41.31924
2973133573,2082,school,Wyoming Area Catholic School,-75.8249305000,41.3185190000,-75.82493,41.31852
2980379740,2082,school,New Story,-75.8547162000,41.3003912000,-75.85472,41.30039
2981660091,2082,school,Hildebrandt Leaning Centers,-75.8754523000,41.2488071000,-75.87545,41.24881
2981660110,2081,university,King's College,-75.8766600000,41.2492825000,-75.87666,41.24928
2981955707,2501,supermarket,Gerrity's,-75.8972022000,41.2815184000,-75.8972,41.28152
2983543626,2082,school,The Schoolhouse,-75.8951245000,41.2634169000,-75.89512,41.26342
2984499665,2013,nursing_home,River Run,-75.8873029000,41.2705352000,-75.8873,41.27054
2985086379,2082,school,Counseling and Learning,-75.8963152000,41.2628594000,-75.89632,41.26286
2985086400,2082,school,The Great Hall of Wyoming Seminary,-75.8967102000,41.2624810000,-75.89671,41.26248
3043675766,2402,motel,Melody Motel,-75.8116377000,41.2498534000,-75.81164,41.24985
3362121875,2082,school,,-76.1894645000,41.1828929000,-76.18946,41.18289
5362516946,2082,school,Heights Terrace Elementary Middle School,-75.9687390000,40.9452828000,-75.96874,40.94528
5369228876,2501,supermarket,India Bazar,-75.8624280000,41.2401891000,-75.86243,41.24019
5587282527,2501,supermarket,Aldi,-76.0176566000,40.9826995000,-76.01766,40.9827
5587282667,2501,supermarket,Alshefski's Enterprize,-76.0104191000,40.9755328000,-76.01042,40.97553
5919567423,2082,school,Crestwood High School,-75.9034003000,41.1396236000,-75.9034,41.13962
5919567427,2501,supermarket,Weis Market,-75.9009541000,41.1467740000,-75.90095,41.14677
5919567430,2501,supermarket,Carone's Market,-75.8915342000,41.1562824000,-75.89153,41.15628
5919577349,2303,cafe,Curry Donut,-75.8884443000,41.1597457000,-75.88844,41.15975
5919582755,2082,school,Fairview Elementary School,-75.8786596000,41.1537802000,-75.87866,41.15378
6035597174,2303,cafe,Maiko's,-76.0032122000,41.2053471000,-76.00321,41.20535
6035648406,2501,supermarket,Weis Markets,-76.0035105000,41.2065503000,-76.00351,41.20655
6038008997,2303,cafe,Curry Donuts,-76.0034056000,41.2030443000,-76.00341,41.20304
6038027330,2303,cafe,Ridge St. Cafe n'More,-76.0008729000,41.1994912000,-76.00087,41.19949
6038180094,2083,kindergarten,Luzerne County Head Start Nanticoke Center,-76.0022412000,41.1946027000,-76.00224,41.1946
6040621156,2082,school,K M Smith Elementary School,-76.0092532000,41.1853561000,-76.00925,41.18536
6042887448,2303,cafe,Curry Donuts,-75.9730973000,41.2093284000,-75.9731,41.20933
6042887457,2501,supermarket,Gerrity's,-75.9720713000,41.2086940000,-75.97207,41.20869
6072022835,2303,cafe,Curry Donuts,-75.9290184000,41.2262171000,-75.92902,41.22622
6077492343,2012,community_centre,R&D Memories,-75.9346640000,41.2323307000,-75.93466,41.23233
6081109276,2083,kindergarten,Count on Us,-75.8892535000,41.2248206000,-75.88925,41.22482
6083980784,2303,cafe,Daily Donut,-75.9159848000,41.2355173000,-75.91598,41.23552
6089100624,2303,cafe,Las Delicias El Paraiso,-75.8949944000,41.2390265000,-75.89499,41.23903
6089100650,2501,supermarket,Save-A-Lot,-75.8933903000,41.2386783000,-75.89339,41.23868
6091272277,2303,cafe,Curry Donuts,-75.8929397000,41.2280435000,-75.89294,41.22804
6101078549,2303,cafe,Crimson Lion Hookah Lounge,-75.8872277000,41.2415192000,-75.88723,41.24152
6104191273,2303,cafe,Starbucks,-75.8871901000,41.2430939000,-75.88719,41.24309
6107993020,2303,cafe,Currys Donuts,-75.8813759000,41.2452119000,-75.88138,41.24521
6108074886,2303,cafe,Curry Donuts,-75.8798400000,41.2471835000,-75.87984,41.24718
6110223847,2082,school,Daniel J. Flood Elementary School,-75.8652734000,41.2534324000,-75.86527,41.25343
6110933360,2014,arts_centre,Arts Center of Wilkes-Barre,-75.8642655000,41.2571452000,-75.86427,41.25715
6129551621,2014,arts_centre,Art 'n Vino,-75.8660060000,41.2611242000,-75.86601,41.26112
6213569483,2501,supermarket,Foodtown,-75.9761998000,40.9766029000,-75.9762,40.9766
6286182716,2501,supermarket,Weis,-76.0044611000,40.9662489000,-76.00446,40.96625
6644520067,2501,supermarket,Save-A-Lot,-75.9839251000,40.9560239000,-75.98393,40.95602
7851609059,2303,cafe,Starbucks,-75.8920956000,41.2571349000,-75.8921,41.25713
357367731,2005,post_office,Harwood Mines Post Office,-76.0193717000,40.9439739000,-76.01937,40.94397
357367751,2005,post_office,Sugarloaf Post Office,-76.0954856000,40.9695293000,-76.09549,40.96953
367964010,2007,library,D Leonard Corgan Library,-75.8783333000,41.2488889000,-75.87833,41.24889
367964086,2007,library,Eugene S Farley Library,-75.8888889000,41.2438889000,-75.88889,41.24389
983949647,2001,police,West Pittston Borough Building,-75.7998909000,41.3338842000,-75.79989,41.33388
1361562653,2007,library,Wyoming Free Library,-75.8377340000,41.3109433000,-75.83773,41.31094
1445188580,2005,post_office,Nescopeck Post Office,-76.2209949000,41.0518032000,-76.22099,41.0518
1445192724,2001,police,Nescopeck Police,-76.2206435000,41.0541091000,-76.22064,41.05411
2468620010,2005,post_office,Dallas Post Office,-75.9624770000,41.3364460000,-75.96248,41.33645
2889505911,2005,post_office,Hunlock Creek Post Office (18621),-76.0954585000,41.2170706000,-76.09546,41.21707
2889505934,2002,fire_station,Hunlock Township Volunteer Fire Station/EMS,-76.0884025000,41.2104698000,-76.0884,41.21047
2966541285,2005,post_office,The UPS Store,-75.9542851000,41.3327343000,-75.95429,41.33273
2970524500,2005,post_office,The UPS Store,-75.8498223000,41.3005339000,-75.84982,41.30053
2970524508,2005,post_office,USPS,-75.8056906000,41.3246580000,-75.80569,41.32466
2970885757,2005,post_office,USPS - Wyoming 18644,-75.8346890000,41.3133202000,-75.83469,41.31332
2973133571,2099,public_building,VFW Post 396,-75.8317475000,41.3160663000,-75.83175,41.31607
2983543628,2005,post_office,The UPS Store,-75.8994604000,41.2578449000,-75.89946,41.25784
2984499671,2099,public_building,VFW Post 283,-75.8842716000,41.2732636000,-75.88427,41.27326
2985086375,2099,public_building,American Legion Post 395,-75.8932288000,41.2657699000,-75.89323,41.26577
4780042797,2007,library,Back Mountain Memorial Library,-75.9625235000,41.3330238000,-75.96252,41.33302
5118660397,2008,town_hall,Courtdale Borough Municipal Building,-75.9130735000,41.2802401000,-75.91307,41.28024
5118660404,2002,fire_station,Courtdale Volunteer Hose Company,-75.9141640000,41.2791179000,-75.91416,41.27912
5118741479,2008,town_hall,Borough of Pringle Town Hall,-75.9012002000,41.2765134000,-75.9012,41.27651
5118741480,2002,fire_station,Pringle Pioneer Volunteer Fire Department,-75.9015022000,41.2764039000,-75.9015,41.2764
5118827957,2002,fire_station,Laurel Run Volunteer Fire Department,-75.8435299000,41.2159822000,-75.84353,41.21598
5118827958,2008,town_hall,Laurel Run Borough Municipal Building,-75.8435410000,41.2161058000,-75.84354,41.21611
5134236097,2008,town_hall,Yatesville Multi-Purpose Building,-75.7830051000,41.3053209000,-75.78301,41.30532
5134250609,2002,fire_station,Warrior Run Volunteer Fire Department,-75.9533707000,41.1916888000,-75.95337,41.19169
5134250616,2008,town_hall,Warrior Run Borough Hall,-75.9522590000,41.1927048000,-75.95226,41.1927
5134257934,2008,town_hall,Penn Lake Park Borough Office,-75.7643852000,41.1142414000,-75.76439,41.11424
5134293654,2007,library,Nuangola Library,-75.9784596000,41.1524905000,-75.97846,41.15249
5134293655,2008,town_hall,Nuangola Borough Office,-75.9783836000,41.1523713000,-75.97838,41.15237
5134302365,2008,town_hall,New Columbus Borough Hall,-76.2868218000,41.1520310000,-76.28682,41.15203
5140469173,2005,post_office,Kingston Post Office,-75.8916986000,41.2663400000,-75.8917,41.26634
5160025440,2002,fire_station,Breslau Hose Company #5,-75.9343022000,41.2351999000,-75.9343,41.2352
5160037939,2002,fire_station,Goodwill Hose Co. #1 Hanover Green,-75.9521988000,41.2182227000,-75.9522,41.21822
5160037940,2002,fire_station,Newtown Fire Co. #2 - North Station,-75.9010769000,41.2224072000,-75.90108,41.22241
5160037941,2002,fire_station,Preston Hose Co. #3,-75.9087459000,41.2061346000,-75.90875,41.20613
5160037942,2002,fire_station,Franklin Hose Co. #4,-75.9161980000,41.2293619000,-75.9162,41.22936
5162176212,2008,town_hall,Larksville Borough Hall,-75.9249564000,41.2646515000,-75.92496,41.26465
5162176213,2002,fire_station,Larksville Volunteer Fire Company,-75.9341131000,41.2595635000,-75.93411,41.25956
5162255928,2008,town_hall,Edwardsville Borough Municipal Building,-75.9055766000,41.2644776000,-75.90558,41.26448
5162255968,2002,fire_station,Columbia Hose Company #3,-75.9148336000,41.2701271000,-75.91483,41.27013
5162312541,2002,fire_station,Independent Fire Company No. 1,-75.8998849000,41.2623271000,-75.89988,41.26233
5162389232,2002,fire_station,Luzerne Fire Department,-75.8953559000,41.2826176000,-75.89536,41.28262
5164248994,2001,police,Forty Fort Police Department,-75.8730691000,41.2849997000,-75.87307,41.285
5166685015,2001,police,Exeter Borough Police Department,-75.8152010000,41.3217973000,-75.8152,41.3218
5166685016,2002,fire_station,Exeter Park Volunteer Hose Company,-75.8325546000,41.3208410000,-75.83255,41.32084
5167650279,2002,fire_station,Good Will Hose Co. #2,-75.9550633000,41.2381426000,-75.95506,41.23814
5168252203,2002,fire_station,Avoca Hose Co. No. 1,-75.7411768000,41.3384582000,-75.74118,41.33846
5168252204,2008,town_hall,Avoca Municipal Building,-75.7405396000,41.3392203000,-75.74054,41.33922
5168252205,2001,police,Avoca Police Department,-75.7404741000,41.3391956000,-75.74047,41.3392
5168263967,2002,fire_station,Excelsior Hose Co. No. 2,-75.7530357000,41.3505520000,-75.75304,41.35055
5219078053,2002,fire_station,Slocum Township Fire Co.,-76.0237077000,41.1432556000,-76.02371,41.14326
5366615358,2001,police,Wilkes-Barre Township Police Department,-75.8711834000,41.2270717000,-75.87118,41.22707
5366615359,2002,fire_station,Wilkes-Barre Township Volunteer Fire Company,-75.8704447000,41.2274421000,-75.87044,41.22744
5735198087,2008,town_hall,Wright Township Municipal Bldg,-75.9055561000,41.1352555000,-75.90556,41.13526
5919567436,2005,post_office,Mountain Top Post Office,-75.8874304000,41.1597780000,-75.88743,41.15978
5919577355,2007,library,Marion S Kirby Library,-75.8825917000,41.1597457000,-75.88259,41.15975
6033114867,2002,fire_station,Sugar Notch Fire & Hose Company #1,-75.9313411000,41.1950080000,-75.93134,41.19501
6033114876,2001,police,Sugar Notch Police Department,-75.9321109000,41.1963554000,-75.93211,41.19636
6034200687,2007,library,Mill Memorial Library,-75.9945390000,41.2052593000,-75.99454,41.20526
6035648417,2005,post_office,Nanticoke,-76.0057692000,41.2058671000,-76.00577,41.20587
6036850388,2001,police,Nanticoke Police Department,-76.0005905000,41.1991665000,-76.00059,41.19917
6040525147,2002,fire_station,Honey Pot Volunteer Hose Co.,-76.0181282000,41.2116355000,-76.01813,41.21164
6040585872,2002,fire_station,Glen Lyon-Alden Volunteer Hose Company,-76.0355469000,41.1740008000,-76.03555,41.174
6040589300,2008,town_hall,Newport Township Municipal Building,-76.0415742000,41.1730639000,-76.04157,41.17306
6040621161,2002,fire_station,Sheatown Hose Company,-76.0147987000,41.1932323000,-76.0148,41.19323
6040684996,2002,fire_station,Glen Lyon Hose Co.,-76.0703605000,41.1755211000,-76.07036,41.17552
6040685010,2005,post_office,Glen Lyon,-76.0748248000,41.1747211000,-76.07482,41.17472
6069696694,2002,fire_station,Ashley Fire Department,-75.8992103000,41.2140429000,-75.89921,41.21404
6072022793,2002,fire_station,Hanover Townsip Fire Department Headquarters,-75.9344375000,41.2263108000,-75.93444,41.22631
6081155185,2009,courthouse,Luzerne County Magisterial District Court,-75.8742375000,41.2243000000,-75.87424,41.2243
6091363056,2002,fire_station,Wilkes-Barre Fire: South Station,-75.8997555000,41.2328682000,-75.89976,41.23287
6097072297,2009,courthouse,Luzerne County District Court,-75.8911069000,41.2386868000,-75.89111,41.23869
6104191272,2001,police,Wilkes University Public Safety Center,-75.8868638000,41.2429049000,-75.88686,41.2429
6129657827,2009,courthouse,Luzerne County Magisterial District 11-3-08,-75.8548136000,41.2720382000,-75.85481,41.27204
6389492822,2002,fire_station,Nanticoke Fire Station #4,-75.9862788000,41.1854190000,-75.98628,41.18542
